<?xml version="1.0"?>
<xml><arxius-consultes><Any>2016</Any><Ambit>Hist&#xF2;ria i mem&#xF2;ria</Ambit><Titularitat>Privada</Titularitat><Latitud>41.383374183</Latitud><Longitud>2.177172358</Longitud><TipusEquipament>Arxius</TipusEquipament><Equipament>Arxiu Fotogr&#xE0;fic Centre Excursionista de Catalunya</Equipament><Districte>01. Ciutat Vella</Districte><ConsultesPresencialsSalesDeConsulta>2737</ConsultesPresencialsSalesDeConsulta><Nota/></arxius-consultes><arxius-consultes><Any>2016</Any><Ambit>Hist&#xF2;ria i mem&#xF2;ria</Ambit><Titularitat>Municipal</Titularitat><Latitud>41.386872640</Latitud><Longitud>2.181806284</Longitud><TipusEquipament>Arxius</TipusEquipament><Equipament>Arxiu Fotogr&#xE0;fic de Barcelona</Equipament><Districte>01. Ciutat Vella</Districte><ConsultesPresencialsSalesDeConsulta>97625</ConsultesPresencialsSalesDeConsulta><Nota/></arxius-consultes><arxius-consultes><Any>2016</Any><Ambit>Hist&#xF2;ria i mem&#xF2;ria</Ambit><Titularitat>Municipal</Titularitat><Latitud>41.384253792</Latitud><Longitud>2.175866873</Longitud><TipusEquipament>Arxius</TipusEquipament><Equipament>Arxiu Hist&#xF2;ric de la Ciutat de Barcelona</Equipament><Districte>01. Ciutat Vella</Districte><ConsultesPresencialsSalesDeConsulta>24190</ConsultesPresencialsSalesDeConsulta><Nota/></arxius-consultes><arxius-consultes><Any>2016</Any><Ambit>Hist&#xF2;ria i mem&#xF2;ria</Ambit><Titularitat>Privada</Titularitat><Latitud>41.413341</Latitud><Longitud>2.174335</Longitud><TipusEquipament>Arxius</TipusEquipament><Equipament>Arxiu Hist&#xF2;ric Hospital de la Sta. Creu i Sant Pau</Equipament><Districte>07. Horta-Guinard&#xF3;</Districte><ConsultesPresencialsSalesDeConsulta>235</ConsultesPresencialsSalesDeConsulta><Nota/></arxius-consultes><arxius-consultes><Any>2016</Any><Ambit>Hist&#xF2;ria i mem&#xF2;ria</Ambit><Titularitat>Municipal</Titularitat><Latitud>41.383087426</Latitud><Longitud>2.178749468</Longitud><TipusEquipament>Arxius</TipusEquipament><Equipament>Arxiu Municipal Contemporani de Barcelona</Equipament><Districte>01. Ciutat Vella</Districte><ConsultesPresencialsSalesDeConsulta>69312</ConsultesPresencialsSalesDeConsulta><Nota/></arxius-consultes><arxius-consultes><Any>2016</Any><Ambit>Hist&#xF2;ria i mem&#xF2;ria</Ambit><Titularitat>Municipal</Titularitat><Latitud/><Longitud/><TipusEquipament>Arxius</TipusEquipament><Equipament>Arxius Municipals de Districte de Barcelona. AMDB</Equipament><Districte>Diversos districtes</Districte><ConsultesPresencialsSalesDeConsulta>138707</ConsultesPresencialsSalesDeConsulta><Nota/></arxius-consultes><arxius-consultes><Any>2016</Any><Ambit>Lletres</Ambit><Titularitat>P&#xFA;blica no municipal</Titularitat><Latitud>41.381057325</Latitud><Longitud>2.169793714</Longitud><TipusEquipament>Biblioteques</TipusEquipament><Equipament>Biblioteca de Catalunya</Equipament><Districte>01. Ciutat Vella</Districte><ConsultesPresencialsSalesDeConsulta>71690</ConsultesPresencialsSalesDeConsulta><Nota/></arxius-consultes><arxius-consultes><Any>2016</Any><Ambit>Hist&#xF2;ria i mem&#xF2;ria</Ambit><Titularitat>Municipal</Titularitat><Latitud>41.392937252</Latitud><Longitud>2.178563570</Longitud><TipusEquipament>Biblioteques</TipusEquipament><Equipament>Biblioteca P&#xFA;blica Ar&#xFA;s</Equipament><Districte>02. Eixample</Districte><ConsultesPresencialsSalesDeConsulta>4877</ConsultesPresencialsSalesDeConsulta><Nota/></arxius-consultes><arxius-consultes><Any>2016</Any><Ambit>Lletres</Ambit><Titularitat>P&#xFA;blica no municipal</Titularitat><Latitud>41.370647908</Latitud><Longitud>2.157431333</Longitud><TipusEquipament>Biblioteques</TipusEquipament><Equipament>Centre de Doc. i Museu de les Arts Esc&#xE8;niques</Equipament><Districte>03. Sants-Montju&#xEF;c</Districte><ConsultesPresencialsSalesDeConsulta>531391</ConsultesPresencialsSalesDeConsulta><Nota/></arxius-consultes></xml>
